city,city_ascii,lat,lng,country,iso2,iso3,admin_name,capital,population,id
Tokyo,Tokyo,35.6897,139.6922,Japan,JP,JPN,Tōkyō,primary,37732000.0,1392685764
Jakarta,Jakarta,-6.175,106.8275,Indonesia,ID,IDN,Jakarta,primary,33756000.0,1360771077
Delhi,Delhi,28.61,77.23,India,IN,IND,Delhi,admin,32226000.0,1356872604
Guangzhou,Guangzhou,23.13,113.26,China,CN,CHN,Guangdong,admin,26940000.0,1156237133
Mumbai,Mumbai,19.0761,72.8775,India,IN,IND,Mahārāshtra,admin,24973000.0,1356226629
Manila,Manila,14.5958,120.9772,Philippines,PH,PHL,Manila,primary,24922000.0,1608618140
Shanghai,Shanghai,31.2286,121.4747,China,CN,CHN,Shanghai,admin,24073000.0,1156073548
São Paulo,Sao Paulo,-23.55,-46.6333,Brazil,BR,BRA,São Paulo,admin,23086000.0,1076532519
Seoul,Seoul,37.56,126.99,"Korea, South",KR,KOR,Seoul,primary,23016000.0,1410836482
Mexico City,Mexico City,19.4333,-99.1333,Mexico,MX,MEX,Ciudad de México,primary,21804000.0,1484247881
Cairo,Cairo,30.0444,31.2358,Egypt,EG,EGY,Al Qāhirah,primary,20296000.0,1818253931
New York,New York,40.6943,-73.9249,United States,US,USA,New York,,18908608.0,1840034016
Dhaka,Dhaka,23.7639,90.3889,Bangladesh,BD,BGD,Dhaka,primary,18627000.0,1050529279
Beijing,Beijing,39.9067,116.3975,China,CN,CHN,Beijing,primary,18522000.0,1156228865
Kolkāta,Kolkata,22.5675,88.37,India,IN,IND,West Bengal,admin,18502000.0,1356060520
Bangkok,Bangkok,13.7525,100.4942,Thailand,TH,THA,Krung Thep Maha Nakhon,primary,18007000.0,1764068610
Shenzhen,Shenzhen,22.5415,114.0596,China,CN,CHN,Guangdong,minor,17619000.0,1156158707
Moscow,Moscow,55.7558,37.6172,Russia,RU,RUS,Moskva,primary,17332000.0,1643318494
Buenos Aires,Buenos Aires,-34.6033,-58.3817,Argentina,AR,ARG,"Buenos Aires, Ciudad Autónoma de",primary,16710000.0,1032717330
Lagos,Lagos,6.455,3.3841,Nigeria,NG,NGA,Lagos,minor,16637000.0,1566593751
Istanbul,Istanbul,41.0136,28.955,Turkey,TR,TUR,İstanbul,admin,16079000.0,1792756324
Karachi,Karachi,24.86,67.01,Pakistan,PK,PAK,Sindh,admin,15738000.0,1586129469
Bangalore,Bangalore,12.9789,77.5917,India,IN,IND,Karnātaka,admin,15386000.0,1356410365
Ho Chi Minh City,Ho Chi Minh City,10.7756,106.7019,Vietnam,VN,VNM,Hồ Chí Minh,admin,15136000.0,1704774326
Ōsaka,Osaka,34.6939,135.5022,Japan,JP,JPN,Ōsaka,admin,15126000.0,1392419823
Chengdu,Chengdu,30.66,104.0633,China,CN,CHN,Sichuan,admin,14645000.0,1156421555
Tehran,Tehran,35.6892,51.3889,Iran,IR,IRN,Tehrān,primary,14148000.0,1364305026
Kinshasa,Kinshasa,-4.3219,15.3119,Congo (Kinshasa),CD,COD,Kinshasa,primary,12836000.0,1180000363
Rio de Janeiro,Rio de Janeiro,-22.9111,-43.2056,Brazil,BR,BRA,Rio de Janeiro,admin,12592000.0,1076887657
Chennai,Chennai,13.0825,80.275,India,IN,IND,Tamil Nādu,admin,12395000.0,1356374944
Xi’an,Xi'an,34.2611,108.9422,China,CN,CHN,Shaanxi,admin,12328000.0,1156244079
Lahore,Lahore,31.5497,74.3436,Pakistan,PK,PAK,Punjab,admin,12306000.0,1586801463
Chongqing,Chongqing,29.5637,106.5504,China,CN,CHN,Chongqing,admin,12135000.0,1156936556
Los Angeles,Los Angeles,34.1141,-118.4068,United States,US,USA,California,,11922389.0,1840020491
Baoding,Baoding,38.874,115.464,China,CN,CHN,Hebei,minor,11544036.0,1156256829
London,London,51.5072,-0.1275,United Kingdom,GB,GBR,"London, City of",primary,11262000.0,1826645935
Paris,Paris,48.8567,2.3522,France,FR,FRA,Île-de-France,primary,11060000.0,1250015082
Linyi,Linyi,35.1038,118.3564,China,CN,CHN,Shandong,,11018365.0,1156086320
Dongguan,Dongguan,23.021,113.752,China,CN,CHN,Guangdong,minor,10646000.0,1156478242
Hyderābād,Hyderabad,17.3617,78.4747,India,IN,IND,Telangāna,admin,10494000.0,1356871768
Tianjin,Tianjin,39.1336,117.2054,China,CN,CHN,Tianjin,admin,10368000.0,1156174046
Lima,Lima,-12.06,-77.0375,Peru,PE,PER,Lima,primary,10320000.0,1604728603
Wuhan,Wuhan,30.5934,114.3046,China,CN,CHN,Hubei,admin,10251000.0,1156117184
Nanyang,Nanyang,32.9987,112.5292,China,CN,CHN,Henan,,9713112.0,1156192287
Hangzhou,Hangzhou,30.267,120.153,China,CN,CHN,Zhejiang,admin,9523000.0,1156275243
Foshan,Foshan,23.0214,113.1216,China,CN,CHN,Guangdong,minor,9498863.0,1156738403
Nagoya,Nagoya,35.1833,136.9,Japan,JP,JPN,Aichi,admin,9197000.0,1392407472
Tongshan,Tongshan,34.204,117.284,China,CN,CHN,Jiangsu,minor,9083790.0,1156241678
Luanda,Luanda,-8.8383,13.2344,Angola,AO,AGO,Luanda,primary,9051000.0,1024949724
Zhoukou,Zhoukou,33.625,114.6418,China,CN,CHN,Henan,minor,9026015.0,1156272098
Ganzhou,Ganzhou,25.831,114.933,China,CN,CHN,Jiangxi,minor,8970014.0,1156832475
Kuala Lumpur,Kuala Lumpur,3.1478,101.6953,Malaysia,MY,MYS,Kuala Lumpur,primary,8911000.0,1458988644
Heze,Heze,35.2343,115.4796,China,CN,CHN,Shandong,minor,8795939.0,1156225008
Quanzhou,Quanzhou,24.8744,118.6757,China,CN,CHN,Fujian,minor,8782285.0,1156829655
Johannesburg,Johannesburg,-26.2044,28.0456,South Africa,ZA,ZAF,Gauteng,admin,8500000.0,1710550792
Chicago,Chicago,41.8375,-87.6866,United States,US,USA,Illinois,,8497759.0,1840000494
Nanjing,Nanjing,32.0608,118.7789,China,CN,CHN,Jiangsu,admin,8422000.0,1156644065
Hanoi,Hanoi,21.0,105.85,Vietnam,VN,VNM,Hà Nội,primary,8246600.0,1704413791
Bogotá,Bogota,4.7111,-74.0722,Colombia,CO,COL,Bogotá,primary,7968095.0,1170483426
Dar es Salaam,Dar es Salaam,-6.8161,39.2803,Tanzania,TZ,TZA,Dar es Salaam,admin,7962000.0,1834843853
Khartoum,Khartoum,15.6,32.5,Sudan,SD,SDN,Khartoum,primary,7869000.0,1729268475
Hong Kong,Hong Kong,22.3,114.2,Hong Kong,HK,HKG,,primary,7450000.0,1344982653
Riyadh,Riyadh,24.6333,46.7167,Saudi Arabia,SA,SAU,Ar Riyāḑ,primary,7237000.0,1682999334
Santiago,Santiago,-33.4372,-70.6506,Chile,CL,CHL,Región Metropolitana,primary,7171000.0,1152554349
Chattogram,Chattogram,22.335,91.8325,Bangladesh,BD,BGD,Chattogram,admin,7000000.0,1050830722
Surabaya,Surabaya,-7.2458,112.7378,Indonesia,ID,IDN,Jawa Timur,admin,6998000.0,1360484663
Madrid,Madrid,40.4169,-3.7033,Spain,ES,ESP,Madrid,primary,6211000.0,1724616994
Baghdad,Baghdad,33.3153,44.3661,Iraq,IQ,IRQ,Baghdād,primary,6183000.0,1368596238
Miami,Miami,25.784,-80.2101,United States,US,USA,Florida,,6080145.0,1840015149
Singapore,Singapore,1.3,103.8,Singapore,SG,SGP,,primary,5983000.0,1702341327
Houston,Houston,29.786,-95.3885,United States,US,USA,Texas,,5970127.0,1840020925
Dallas,Dallas,32.7935,-96.7667,United States,US,USA,Texas,,5830932.0,1840019440
Douala,Douala,4.05,9.7,Cameroon,CM,CMR,Littoral,admin,5768400.0,1120494607
Philadelphia,Philadelphia,40.0077,-75.1339,United States,US,USA,Pennsylvania,,5683533.0,1840000673
Toronto,Toronto,43.7417,-79.3733,Canada,CA,CAN,Ontario,admin,5647656.0,1124279679
Giza,Giza,29.987,31.2118,Egypt,EG,EGY,Al Jīzah,admin,5598402.0,1818925479
Nairobi,Nairobi,-1.2864,36.8172,Kenya,KE,KEN,Nairobi City,primary,5545000.0,1404000661
Guadalajara,Guadalajara,20.6767,-103.3475,Mexico,MX,MEX,Jalisco,admin,5525000.0,1484950208
Ankara,Ankara,39.93,32.85,Turkey,TR,TUR,Ankara,primary,5503985.0,1792572891
Saint Petersburg,Saint Petersburg,59.9375,30.3086,Russia,RU,RUS,Sankt-Peterburg,admin,5384342.0,1643616350
Monterrey,Monterrey,25.6667,-100.3,Mexico,MX,MEX,Nuevo León,admin,5341171.0,1484559591
Belo Horizonte,Belo Horizonte,-19.9167,-43.9333,Brazil,BR,BRA,Minas Gerais,admin,5328000.0,1076967355
Rangoon,Rangoon,16.795,96.16,Burma,MM,MMR,Yangon,primary,5209541.0,1104616656
Atlanta,Atlanta,33.7628,-84.422,United States,US,USA,Georgia,admin,5180179.0,1840013660
Washington,Washington,38.9047,-77.0163,United States,US,USA,District of Columbia,primary,5116378.0,1840006060
Melbourne,Melbourne,-37.8142,144.9631,Australia,AU,AUS,Victoria,admin,5031195.0,1036533631
Abidjan,Abidjan,5.3167,-4.0333,Côte d’Ivoire,CI,CIV,Abidjan,primary,4980000.0,1384207980
Berlin,Berlin,52.52,13.405,Germany,DE,DEU,Berlin,primary,4890363.0,1276451290
Alexandria,Alexandria,31.1975,29.8925,Egypt,EG,EGY,Al Iskandarīyah,admin,4870000.0,1818695837
Sydney,Sydney,-33.8678,151.21,Australia,AU,AUS,New South Wales,admin,4840600.0,1036074917
Barcelona,Barcelona,41.3828,2.1769,Spain,ES,ESP,Catalonia,admin,4800000.0,1724594040
Cape Town,Cape Town,-33.9253,18.4239,South Africa,ZA,ZAF,Western Cape,primary,4770313.0,1710680650
Jeddah,Jeddah,21.5433,39.1728,Saudi Arabia,SA,SAU,Makkah al Mukarramah,,4697000.0,1682926944
Boston,Boston,42.3188,-71.0852,United States,US,USA,Massachusetts,admin,4328315.0,1840000455
İzmir,Izmir,38.42,27.14,Turkey,TR,TUR,İzmir,admin,4320519.0,1792725579
Kabul,Kabul,34.5253,69.1783,Afghanistan,AF,AFG,Kābul,primary,4273156.0,1004993580
Bamako,Bamako,12.6392,-8.0028,Mali,ML,MLI,Bamako,primary,4227569.0,1466965925
Fortaleza,Fortaleza,-3.7275,-38.5275,Brazil,BR,BRA,Ceará,admin,4167996.0,1076567885
Phoenix,Phoenix,33.5722,-112.0892,United States,US,USA,Arizona,admin,4064275.0,1840020568
Amman,Amman,31.9497,35.9328,Jordan,JO,JOR,Al ‘Āşimah,primary,4007526.0,1400522593
Abuja,Abuja,9.0667,7.4833,Nigeria,NG,NGA,Federal Capital Territory,primary,3770000.0,1566342270
Yokohama,Yokohama,35.4442,139.6381,Japan,JP,JPN,Kanagawa,admin,3757630.0,1392118339
Detroit,Detroit,42.3834,-83.1024,United States,US,USA,Michigan,,3725908.0,1840003971
Montréal,Montreal,45.5089,-73.5617,Canada,CA,CAN,Quebec,,3675219.0,1124586170
Medan,Medan,3.5894,98.6739,Indonesia,ID,IDN,Sumatera Utara,admin,3632000.0,1360543171
Seattle,Seattle,47.6211,-122.3244,United States,US,USA,Washington,,3561397.0,1840021117
Ibadan,Ibadan,7.3964,3.9167,Nigeria,NG,NGA,Oyo,admin,3552000.0,1566366407
Casablanca,Casablanca,33.5333,-7.5833,Morocco,MA,MAR,Casablanca-Settat,admin,3499000.0,1504175315
Kumasi,Kumasi,6.7,-1.625,Ghana,GH,GHA,Ashanti,admin,3490030.0,1288181103
Busan,Busan,35.18,129.075,"Korea, South",KR,KOR,Busan,admin,3453198.0,1410601465
Algiers,Algiers,36.7539,3.0589,Algeria,DZ,DZA,Alger,primary,3415811.0,1012973369
Lucknow,Lucknow,26.85,80.95,India,IN,IND,Uttar Pradesh,admin,3382000.0,1356891790
Mashhad,Mashhad,36.3264,59.5433,Iran,IR,IRN,Khorāsān-e Raẕavī,admin,3372090.0,1364123206
San Francisco,San Francisco,37.7558,-122.4449,United States,US,USA,California,,3364979.0,1840021543
Boankra,Boankra,6.6944,-1.4028,Ghana,GH,GHA,Ashanti,,3348000.0,1288164978
Dubai,Dubai,25.2631,55.2972,United Arab Emirates,AE,ARE,Dubayy,admin,3331420.0,1784736618
Kotla Qasim Khan,Kotla Qasim Khan,32.5833,73.75,Pakistan,PK,PAK,Punjab,,3219375.0,1586216308
Faisalabad,Faisalabad,31.4167,73.0911,Pakistan,PK,PAK,Punjab,minor,3203846.0,1586323916
Santa Cruz de la Sierra,Santa Cruz de la Sierra,-17.7892,-63.1975,Bolivia,BO,BOL,Santa Cruz,,3151676.0,1068005036
Jaipur,Jaipur,26.9,75.8,India,IN,IND,Rājasthān,admin,3073350.0,1356293537
Athens,Athens,37.9842,23.7281,Greece,GR,GRC,Attikí,primary,3059764.0,1300715560
San Diego,San Diego,32.8313,-117.1222,United States,US,USA,California,,3046560.0,1840021990
Addis Ababa,Addis Ababa,9.03,38.74,Ethiopia,ET,ETH,Ādīs Ābeba,primary,3041002.0,1231824991
Taichung,Taichung,24.1439,120.6794,Taiwan,TW,TWN,Taichung,admin,3033885.0,1158689622
Guatemala City,Guatemala City,14.6133,-90.5353,Guatemala,GT,GTM,Guatemala,primary,3014000.0,1320197916
Kuwait City,Kuwait City,29.3697,47.9783,Kuwait,KW,KWT,Al ‘Āşimah,primary,3000000.0,1414102075
Budapest,Budapest,47.4925,19.0514,Hungary,HU,HUN,Budapest,primary,2997958.0,1348611435
Quezon City,Quezon City,14.65,121.0475,Philippines,PH,PHL,Quezon,admin,2960048.0,1608974097
Sanaa,Sanaa,15.3483,44.2064,Yemen,YE,YEM,Amānat al ‘Āşimah,primary,2957000.0,1887750814
Tashkent,Tashkent,41.3111,69.2797,Uzbekistan,UZ,UZB,Toshkent,primary,2956384.0,1860331871
Kyiv,Kyiv,50.45,30.5233,Ukraine,UA,UKR,"Kyiv, Misto",primary,2952301.0,1804382913
Incheon,Incheon,37.4833,126.6333,"Korea, South",KR,KOR,Incheon,admin,2936117.0,1410160313
Birmingham,Birmingham,52.48,-1.9025,United Kingdom,GB,GBR,Birmingham,,2919600.0,1826423213
Bursa,Bursa,40.1833,29.05,Turkey,TR,TUR,Bursa,admin,2901396.0,1792903330
Minneapolis,Minneapolis,44.9635,-93.2678,United States,US,USA,Minnesota,,2892569.0,1840007830
Mbuji-Mayi,Mbuji-Mayi,-6.15,23.6,Congo (Kinshasa),CD,COD,Kasaï Oriental,admin,2892000.0,1180399586
La Paz,La Paz,-16.4958,-68.1333,Bolivia,BO,BOL,La Paz,primary,2867504.0,1068000064
Pyongyang,Pyongyang,39.0167,125.7475,"Korea, North",KP,PRK,P’yŏngyang,primary,2863000.0,1408738594
Tampa,Tampa,27.9945,-82.4447,United States,US,USA,Florida,,2861173.0,1840015982
Brasília,Brasilia,-15.7939,-47.8828,Brazil,BR,BRA,Distrito Federal,primary,2817068.0,1076144436
Omdurman,Omdurman,15.65,32.4833,Sudan,SD,SDN,Khartoum,,2805396.0,1729912179
Malang,Malang,-7.98,112.62,Indonesia,ID,IDN,Jawa Timur,,2795209.0,1360141408
Stuttgart,Stuttgart,48.7775,9.18,Germany,DE,DEU,Baden-Württemberg,admin,2787724.0,1276171358
Rome,Rome,41.8933,12.4828,Italy,IT,ITA,Lazio,primary,2748109.0,1380382862
Brooklyn,Brooklyn,40.6501,-73.9496,United States,US,USA,New York,,2736074.0,1840034030
Kaohsiung,Kaohsiung,22.615,120.2975,Taiwan,TW,TWN,Kaohsiung,admin,2733964.0,1158331334
Denver,Denver,39.762,-104.8758,United States,US,USA,Colorado,admin,2687458.0,1840018789
Gāzipura,Gazipura,23.9889,90.375,Bangladesh,BD,BGD,Dhaka,,2674697.0,1050449249
Guayaquil,Guayaquil,-2.19,-79.8875,Ecuador,EC,ECU,Guayas,admin,2650288.0,1218802178
Mogadishu,Mogadishu,2.0392,45.3419,Somalia,SO,SOM,Banaadir,primary,2610483.0,1706893395
Munich,Munich,48.1375,11.575,Germany,DE,DEU,Bavaria,admin,2606021.0,1276692352
Taipei,Taipei,25.0375,121.5625,Taiwan,TW,TWN,Taipei,primary,2603150.0,1158881289
Bekasi,Bekasi,-6.2349,106.9923,Indonesia,ID,IDN,Jawa Barat,,2590257.0,1360006015
Damascus,Damascus,33.5131,36.2919,Syria,SY,SYR,Dimashq,primary,2584771.0,1760685964
Medellín,Medellin,6.2308,-75.5906,Colombia,CO,COL,Antioquia,admin,2529403.0,1170680389
Khowrhesht,Khowrhesht,36.205,49.6872,Iran,IR,IRN,Qazvīn,,2500000.0,1364002070
Hamburg,Hamburg,53.55,10.0,Germany,DE,DEU,Hamburg,admin,2484800.0,1276041799
Cali,Cali,3.4206,-76.5222,Colombia,CO,COL,Valle del Cauca,admin,2471474.0,1170417589
Lusaka,Lusaka,-15.4167,28.2833,Zambia,ZM,ZMB,Lusaka,primary,2467563.0,1894157390
Ouagadougou,Ouagadougou,12.3686,-1.5275,Burkina Faso,BF,BFA,Centre,primary,2453496.0,1854029208
Yaoundé,Yaounde,3.8667,11.5167,Cameroon,CM,CMR,Centre,primary,2440462.0,1120298240
Mecca,Mecca,21.4225,39.8233,Saudi Arabia,SA,SAU,Makkah al Mukarramah,admin,2427924.0,1682169241
Vancouver,Vancouver,49.25,-123.1,Canada,CA,CAN,British Columbia,,2426160.0,1124825478
Beirut,Beirut,33.8983,35.5057,Lebanon,LB,LBN,Beyrouth,primary,2421354.0,1422847713
Salvador,Salvador,-12.9747,-38.4767,Brazil,BR,BRA,Bahia,admin,2418005.0,1076923789
Bucharest,Bucharest,44.4325,26.1039,Romania,RO,ROU,Bucureşti,primary,2412530.0,1642414442
Queens,Queens,40.7498,-73.7976,United States,US,USA,New York,,2405464.0,1840034002
Accra,Accra,5.55,-0.2,Ghana,GH,GHA,Greater Accra,primary,2388000.0,1288299415
Bekasi Kota,Bekasi Kota,-6.2333,107.0,Indonesia,ID,IDN,Jawa Barat,,2381053.0,1360673840
Daegu,Daegu,35.8717,128.6017,"Korea, South",KR,KOR,Daegu,admin,2376044.0,1410095252
Brisbane,Brisbane,-27.4678,153.0281,Australia,AU,AUS,Queensland,admin,2360241.0,1036192929
Riverside,Riverside,33.9381,-117.3949,United States,US,USA,California,,2332836.0,1840020551
Colombo,Colombo,6.9344,79.8428,Sri Lanka,LK,LKA,Western,primary,2323826.0,1144251314
Baku,Baku,40.3953,49.8822,Azerbaijan,AZ,AZE,Bakı,primary,2300500.0,1031946365
Antananarivo,Antananarivo,-18.91,47.525,Madagascar,MG,MDG,Antananarivo,primary,2300000.0,1450978461
Fukuoka,Fukuoka,33.59,130.4017,Japan,JP,JPN,Fukuoka,admin,2286000.0,1392576294
Las Vegas,Las Vegas,36.2333,-115.2654,United States,US,USA,Nevada,,2248047.0,1840020364
Caracas,Caracas,10.4806,-66.9036,Venezuela,VE,VEN,Distrito Capital,primary,2245744.0,1862748204
Tangerang,Tangerang,-6.1703,106.6403,Indonesia,ID,IDN,Jawa Barat,,2237006.0,1360002844
Konya,Konya,37.8667,32.4833,Turkey,TR,TUR,Konya,admin,2232374.0,1792014004
Vienna,Vienna,48.2083,16.3725,Austria,AT,AUT,Wien,primary,2223236.0,1040261752
Eşfahān,Esfahan,32.6447,51.6675,Iran,IR,IRN,Eşfahān,admin,2219343.0,1364023865
Baltimore,Baltimore,39.3051,-76.6144,United States,US,USA,Maryland,,2196524.0,1840001592
Awka,Awka,6.2069,7.0678,Nigeria,NG,NGA,Anambra,admin,2171900.0,1566560581
Harare,Harare,-17.8292,31.0522,Zimbabwe,ZW,ZWE,Harare,primary,2150000.0,1716196799
Perth,Perth,-31.9559,115.8606,Australia,AU,AUS,Western Australia,admin,2141834.0,1036178956
St. Louis,St. Louis,38.6359,-90.2451,United States,US,USA,Missouri,,2130881.0,1840001651
Phnom Penh,Phnom Penh,11.5694,104.9211,Cambodia,KH,KHM,Phnom Penh,primary,2129371.0,1116260534
Depok,Depok,-6.394,106.8225,Indonesia,ID,IDN,Jawa Barat,,2123349.0,1360962899
Stockholm,Stockholm,59.3294,18.0686,Sweden,SE,SWE,Stockholm,primary,2121000.0,1752425602
Kowloon,Kowloon,22.3167,114.1833,Hong Kong,HK,HKG,,,2108419.0,1344538284
Córdoba,Cordoba,-31.4167,-64.1833,Argentina,AR,ARG,Córdoba,admin,2106734.0,1032803249
Haiphong,Haiphong,20.8651,106.6838,Vietnam,VN,VNM,Hải Phòng,admin,2103500.0,1704000623
Zamboanga City,Zamboanga City,6.9042,122.0761,Philippines,PH,PHL,Zamboanga,admin,2100000.0,1608189351
Rawalpindi,Rawalpindi,33.6,73.0333,Pakistan,PK,PAK,Punjab,minor,2098231.0,1586344001
Portland,Portland,45.5371,-122.65,United States,US,USA,Oregon,,2095808.0,1840019941
Kano,Kano,12.0,8.5167,Nigeria,NG,NGA,Kano,admin,2095000.0,1566422868
Havana,Havana,23.1367,-82.3589,Cuba,CU,CUB,La Habana,primary,2089532.0,1192752771
Manaus,Manaus,-3.1189,-60.0217,Brazil,BR,BRA,Amazonas,admin,2063547.0,1076607274
San Antonio,San Antonio,29.4632,-98.5238,United States,US,USA,Texas,,2058444.0,1840022220
Gujranwala,Gujranwala,32.1567,74.19,Pakistan,PK,PAK,Punjab,minor,2027001.0,1586400472
Aleppo,Aleppo,36.2,37.16,Syria,SY,SYR,Ḩalab,admin,2003671.0,1760366651
Tijuana,Tijuana,32.525,-117.0333,Mexico,MX,MEX,Baja California,minor,2002000.0,1484708778
Bamenda,Bamenda,5.9614,10.1517,Cameroon,CM,CMR,North-West,admin,2000000.0,1120909610
Minsk,Minsk,53.9,27.5667,Belarus,BY,BLR,Minsk,primary,1995471.0,1112348503
Karaj,Karaj,35.8272,50.9489,Iran,IR,IRN,Alborz,admin,1973470.0,1364258511
Kananga,Kananga,-5.897,22.4488,Congo (Kinshasa),CD,COD,Kasaï Central,admin,1971704.0,1180172460
Peshawar,Peshawar,34.0144,71.5675,Pakistan,PK,PAK,Khyber Pakhtunkhwa,admin,1970042.0,1586851102
Sapporo,Sapporo,43.0619,141.3544,Japan,JP,JPN,Hokkaidō,admin,1959313.0,1392000195
Sacramento,Sacramento,38.5677,-121.4685,United States,US,USA,California,admin,1957738.0,1840021491
Almaty,Almaty,43.24,76.915,Kazakhstan,KZ,KAZ,Almaty,admin,1916822.0,1398351701
Austin,Austin,30.3005,-97.7522,United States,US,USA,Texas,admin,1905945.0,1840019590
Blantyre,Blantyre,-15.7861,35.0058,Malawi,MW,MWI,Blantyre,admin,1895973.0,1454145012
Tainan,Tainan,22.9833,120.1833,Taiwan,TW,TWN,Tainan,admin,1874686.0,1158061376
Santa Cruz,Santa Cruz,-17.8,-63.1833,Bolivia,BO,BOL,Santa Cruz,admin,1867673.0,1068129363
Port Harcourt,Port Harcourt,4.8242,7.0336,Nigeria,NG,NGA,Rivers,admin,1865000.0,1566070649
Warsaw,Warsaw,52.23,21.0111,Poland,PL,POL,Mazowieckie,primary,1860281.0,1616024847
San Juan,San Juan,18.3985,-66.061,Puerto Rico,PR,PRI,Puerto Rico,primary,1814587.0,1630035577
Mersin,Mersin,36.8,34.6333,Turkey,TR,TUR,Mersin,admin,1814468.0,1792520282
Bhopāl,Bhopal,23.2599,77.4126,India,IN,IND,Madhya Pradesh,admin,1798218.0,1356734039
Mosul,Mosul,36.34,43.13,Iraq,IQ,IRQ,Nīnawá,admin,1792000.0,1368194914
Lubumbashi,Lubumbashi,-11.6647,27.4794,Congo (Kinshasa),CD,COD,Haut-Katanga,admin,1786397.0,1180506234
Davao,Davao,7.07,125.6,Philippines,PH,PHL,Davao,admin,1776949.0,1608906877
Curitiba,Curitiba,-25.4297,-49.2711,Brazil,BR,BRA,Paraná,admin,1773733.0,1076701712
Adana,Adana,37.0,35.3213,Turkey,TR,TUR,Adana,admin,1765981.0,1792783772
Quito,Quito,-0.22,-78.5125,Ecuador,EC,ECU,Pichincha,primary,1763275.0,1218441993
Brazzaville,Brazzaville,-4.2694,15.2711,Congo (Brazzaville),CG,COG,Brazzaville,primary,1733263.0,1178340306
Diyarbakır,Diyarbakir,37.91,40.24,Turkey,TR,TUR,Diyarbakır,admin,1732396.0,1792536241
Indianapolis,Indianapolis,39.7771,-86.1458,United States,US,USA,Indiana,admin,1729849.0,1840030084
Montevideo,Montevideo,-34.8836,-56.1819,Uruguay,UY,URY,Montevideo,primary,1719453.0,1858107000
Patna,Patna,25.594,85.1376,India,IN,IND,Bihār,admin,1684222.0,1356821429
Tegucigalpa,Tegucigalpa,14.1058,-87.2047,Honduras,HN,HND,Francisco Morazán,primary,1682725.0,1340344059
Kampala,Kampala,0.3136,32.5811,Uganda,UG,UGA,Kampala,primary,1680600.0,1800406299
Conakry,Conakry,9.5092,-13.7122,Guinea,GN,GIN,Conakry,primary,1667864.0,1324568159
Caloocan City,Caloocan City,14.65,120.97,Philippines,PH,PHL,Caloocan,admin,1661584.0,1608897690
Masvingo,Masvingo,-20.0744,30.8328,Zimbabwe,ZW,ZWE,Masvingo,admin,1638528.0,1716049475
Novosibirsk,Novosibirsk,55.05,82.95,Russia,RU,RUS,Novosibirskaya Oblast’,admin,1625631.0,1643399240
Semarang,Semarang,-6.99,110.4225,Indonesia,ID,IDN,Jawa Tengah,admin,1621384.0,1360745537
Rājshāhi,Rajshahi,24.3667,88.6,Bangladesh,BD,BGD,Rājshāhi,admin,1600000.0,1050547831
Valencia,Valencia,39.47,-0.3764,Spain,ES,ESP,Valencia,admin,1595000.0,1724981666
Puebla,Puebla,19.0333,-98.1833,Mexico,MX,MEX,Puebla,admin,1576259.0,1484416394
Columbus,Columbus,39.9862,-82.9855,United States,US,USA,Ohio,admin,1572546.0,1840003760
Shīrāz,Shiraz,29.61,52.5425,Iran,IR,IRN,Fārs,admin,1565572.0,1364432238
Tabrīz,Tabriz,38.0814,46.3006,Iran,IR,IRN,Āz̄arbāyjān-e Sharqī,admin,1558693.0,1364141756
Maracaibo,Maracaibo,10.6333,-71.6333,Venezuela,VE,VEN,Zulia,admin,1551539.0,1862072711
Sofia,Sofia,42.7,23.33,Bulgaria,BG,BGR,Sofia-Grad,primary,1547779.0,1100762037
San José,San Jose,9.9325,-84.08,Costa Rica,CR,CRI,San José,primary,1543000.0,1188749877
Palembang,Palembang,-2.9861,104.7556,Indonesia,ID,IDN,Sumatera Selatan,admin,1535952.0,1360902897
Kōbe,Kobe,34.69,135.1956,Japan,JP,JPN,Hyōgo,admin,1521707.0,1392978082
Kigali,Kigali,-1.9439,30.0594,Rwanda,RW,RWA,Kigali,primary,1518632.0,1646923541
Panama City,Panama City,8.9833,-79.5167,Panama,PA,PAN,Panamá,primary,1500189.0,1591672475
Gwangju,Gwangju,35.1653,126.8486,"Korea, South",KR,KOR,Gwangju,admin,1490092.0,1410000087
Recife,Recife,-8.05,-34.9,Brazil,BR,BRA,Pernambuco,admin,1488920.0,1076137337
Valencia,Valencia,10.1833,-68.0,Venezuela,VE,VEN,Carabobo,admin,1484430.0,1862309871
Abu Dhabi,Abu Dhabi,24.4667,54.3667,United Arab Emirates,AE,ARE,Abū Z̧aby,primary,1483000.0,1784176710
Daejeon,Daejeon,36.35,127.385,"Korea, South",KR,KOR,Daejeon,admin,1475221.0,1410993875
Yekaterinburg,Yekaterinburg,56.8356,60.6128,Russia,RU,RUS,Sverdlovskaya Oblast’,admin,1468833.0,1643582706
Kyōto,Kyoto,35.0117,135.7683,Japan,JP,JPN,Kyōto,admin,1463723.0,1392622735
Amsterdam,Amsterdam,52.3728,4.8936,Netherlands,NL,NLD,Noord-Holland,primary,1459402.0,1528355309
Kismaayo,Kismaayo,-0.3581,42.5453,Somalia,SO,SOM,Jubbada Hoose,admin,1458000.0,1706091701
Dakar,Dakar,14.6928,-17.4467,Senegal,SN,SEN,Dakar,primary,1438725.0,1686604760
Goiânia,Goiania,-16.6667,-49.25,Brazil,BR,BRA,Goiás,admin,1437237.0,1076034054
Muscat,Muscat,23.6139,58.5922,Oman,OM,OMN,Masqaţ,primary,1421409.0,1512035506
Kharkiv,Kharkiv,49.9925,36.2311,Ukraine,UA,UKR,Kharkivska Oblast,admin,1421125.0,1804588111
Medina,Medina,24.47,39.61,Saudi Arabia,SA,SAU,Al Madīnah al Munawwarah,admin,1411599.0,1682345785
Khulna,Khulna,22.8167,89.55,Bangladesh,BD,BGD,Khulna,admin,1400689.0,1050667339
Ulaanbaatar,Ulaanbaatar,47.9203,106.9172,Mongolia,MN,MNG,Ulaanbaatar,primary,1396288.0,1496024767
Kayseri,Kayseri,38.7225,35.4875,Turkey,TR,TUR,Kayseri,admin,1389680.0,1792945815
Tel Aviv-Yafo,Tel Aviv-Yafo,32.08,34.78,Israel,IL,ISR,Tel Aviv,admin,1388400.0,1376401542
Samsun,Samsun,41.2903,36.3336,Turkey,TR,TUR,Samsun,admin,1368488.0,1792169057
Copenhagen,Copenhagen,55.6761,12.5683,Denmark,DK,DNK,Hovedstaden,primary,1366301.0,1208763942
Helsinki,Helsinki,60.1708,24.9375,Finland,FI,FIN,Uusimaa,primary,1360075.0,1246177997
Prague,Prague,50.0875,14.4214,Czechia,CZ,CZE,Praha,primary,1357326.0,1203744823
Milan,Milan,45.4669,9.19,Italy,IT,ITA,Lombardy,admin,1354196.0,1380724377
Auckland,Auckland,-36.8406,174.74,New Zealand,NZ,NZL,Auckland,admin,1346091.0,1554435911
Santiago,Santiago,19.4572,-70.6889,Dominican Republic,DO,DOM,Cibao Norte,admin,1343423.0,1214985348
Makassar,Makassar,-5.1619,119.4362,Indonesia,ID,IDN,Sulawesi Selatan,admin,1338663.0,1360051337
Porto Alegre,Porto Alegre,-30.0331,-51.23,Brazil,BR,BRA,Rio Grande do Sul,admin,1332570.0,1076658221
Barranquilla,Barranquilla,10.9833,-74.8019,Colombia,CO,COL,Atlántico,admin,1326588.0,1170179113
Al Başrah,Al Basrah,30.515,47.81,Iraq,IQ,IRQ,Al Başrah,admin,1326564.0,1368714645
Saitama,Saitama,35.8614,139.6456,Japan,JP,JPN,Saitama,admin,1325843.0,1392017719
Mandalay,Mandalay,21.9831,96.0844,Burma,MM,MMR,Mandalay,admin,1319452.0,1104468217
Belém,Belem,-1.4558,-48.5039,Brazil,BR,BRA,Pará,admin,1303389.0,1076646823
Adelaide,Adelaide,-34.9275,138.6,Australia,AU,AUS,South Australia,admin,1295714.0,1036538171
Providence,Providence,41.823,-71.4187,United States,US,USA,Rhode Island,admin,1290271.0,1840003289
Porto,Porto,41.1621,-8.622,Portugal,PT,PRT,Porto,admin,1278210.0,1620356810
Dublin,Dublin,53.35,-6.2603,Ireland,IE,IRL,Dublin,primary,1263219.0,1372595407
Kazan,Kazan,55.7964,49.1089,Russia,RU,RUS,Tatarstan,admin,1259173.0,1643101260
Balıkesir,Balikesir,39.6333,27.8833,Turkey,TR,TUR,Balıkesir,admin,1250610.0,1792020804
Sharjah,Sharjah,25.3575,55.3908,United Arab Emirates,AE,ARE,Ash Shāriqah,admin,1247749.0,1784152993
Nizhniy Novgorod,Nizhniy Novgorod,56.3269,44.0075,Russia,RU,RUS,Nizhegorodskaya Oblast’,admin,1244254.0,1643012126
Cần Thơ,Can Tho,10.0333,105.7833,Vietnam,VN,VNM,Cần Thơ,admin,1237300.0,1704783472
Brussels,Brussels,50.8467,4.3525,Belgium,BE,BEL,Brussels-Capital Region,primary,1235192.0,1056469830
Suwon,Suwon,37.2667,127.0167,"Korea, South",KR,KOR,Gyeonggi,admin,1234300.0,1410679777
Mombasa,Mombasa,-4.05,39.6667,Kenya,KE,KEN,Mombasa,admin,1208333.0,1404512373
Qom,Qom,34.64,50.8764,Iran,IR,IRN,Qom,admin,1201158.0,1364701633
Hargeysa,Hargeysa,9.5631,44.0675,Somalia,SO,SOM,Woqooyi Galbeed,admin,1200000.0,1706832021
Baidoa,Baidoa,3.1167,43.65,Somalia,SO,SOM,Bay,admin,1200000.0,1706563100
Hiroshima,Hiroshima,34.3914,132.4519,Japan,JP,JPN,Hiroshima,admin,1198021.0,1392373695
Chiang Mai,Chiang Mai,18.7953,98.9986,Thailand,TH,THA,Chiang Mai,admin,1198000.0,1764662886
Belgrade,Belgrade,44.82,20.46,Serbia,RS,SRB,Beograd,primary,1197714.0,1688374696
Maiduguri,Maiduguri,11.8333,13.15,Nigeria,NG,NGA,Borno,admin,1197497.0,1566540296
Chelyabinsk,Chelyabinsk,55.1547,61.3758,Russia,RU,RUS,Chelyabinskaya Oblast’,admin,1196680.0,1643224011
Mbandaka,Mbandaka,0.0478,18.2558,Congo (Kinshasa),CD,COD,Équateur,admin,1187837.0,1180720887
Doha,Doha,25.2867,51.5333,Qatar,QA,QAT,Ad Dawḩah,primary,1186023.0,1634459660
Ahvāz,Ahvaz,31.3047,48.6783,Iran,IR,IRN,Khūzestān,admin,1184788.0,1364350188
Shymkent,Shymkent,42.3167,69.5958,Kazakhstan,KZ,KAZ,Shymkent,admin,1184113.0,1398791401
Tripoli,Tripoli,32.8872,13.1914,Libya,LY,LBY,Ţarābulus,primary,1183000.0,1434201852
Srīnagar,Srinagar,34.09,74.79,India,IN,IND,Jammu and Kashmīr,admin,1180570.0,1356442950
Nashville,Nashville,36.1715,-86.7842,United States,US,USA,Tennessee,admin,1177657.0,1840036155
Salt Lake City,Salt Lake City,40.7776,-111.9311,United States,US,USA,Utah,admin,1173879.0,1840021383
Omsk,Omsk,54.9833,73.3667,Russia,RU,RUS,Omskaya Oblast’,admin,1172070.0,1643360863
Samara,Samara,53.2028,50.1408,Russia,RU,RUS,Samarskaya Oblast’,admin,1169719.0,1643205757
Bandar Lampung,Bandar Lampung,-5.45,105.2667,Indonesia,ID,IDN,Lampung,admin,1166761.0,1360243491
Raleigh,Raleigh,35.8324,-78.6429,United States,US,USA,North Carolina,admin,1163152.0,1840014497
Nay Pyi Taw,Nay Pyi Taw,19.7475,96.115,Burma,MM,MMR,Nay Pyi Taw,primary,1160242.0,1104838105
Edmonton,Edmonton,53.5344,-113.4903,Canada,CA,CAN,Alberta,admin,1151635.0,1124290735
Ulsan,Ulsan,35.55,129.3167,"Korea, South",KR,KOR,Ulsan,admin,1150116.0,1410134602
Benin City,Benin City,6.3333,5.6222,Nigeria,NG,NGA,Edo,admin,1147188.0,1566080151
Bujumbura,Bujumbura,-3.3833,29.3667,Burundi,BI,BDI,Bujumbura Mairie,primary,1143202.0,1108101689
Rostov,Rostov,47.2225,39.71,Russia,RU,RUS,Rostovskaya Oblast’,admin,1137704.0,1643013518
Maputo,Maputo,-25.9667,32.5833,Mozambique,MZ,MOZ,Maputo,primary,1133200.0,1508074843
Bukavu,Bukavu,-2.5,28.8667,Congo (Kinshasa),CD,COD,Sud-Kivu,admin,1133000.0,1180475821
Santo Domingo,Santo Domingo,18.4667,-69.95,Dominican Republic,DO,DOM,Ozama,primary,1128678.0,1214636202
Bishkek,Bishkek,42.8747,74.6122,Kyrgyzstan,KG,KGZ,Bishkek,primary,1120827.0,1417191971
Tbilisi,Tbilisi,41.7225,44.7925,Georgia,GE,GEO,Tbilisi,primary,1118035.0,1268203191
Ufa,Ufa,54.7261,55.9475,Russia,RU,RUS,Bashkortostan,admin,1115560.0,1643722928
Fès,Fes,34.0433,-5.0033,Morocco,MA,MAR,Fès-Meknès,admin,1112072.0,1504861997
Mwanza,Mwanza,-2.5167,32.9,Tanzania,TZ,TZA,Mwanza,admin,1104521.0,1834011288
Biên Hòa,Bien Hoa,10.95,106.8167,Vietnam,VN,VNM,Đồng Nai,admin,1104000.0,1704863046
Mexicali,Mexicali,32.6633,-115.4678,Mexico,MX,MEX,Baja California,admin,1102342.0,1484788702
Sevilla,Sevilla,37.39,-5.99,Spain,ES,ESP,Andalusia,admin,1100000.0,1724991838
Tamale,Tamale,9.4075,-0.8533,Ghana,GH,GHA,Northern,admin,1095808.0,1288890688
N’Djamena,N'Djamena,12.11,15.05,Chad,TD,TCD,N’Djamena,primary,1092066.0,1148708596
Krasnoyarsk,Krasnoyarsk,56.0089,92.8719,Russia,RU,RUS,Krasnoyarskiy Kray,admin,1083865.0,1643544975
Astana,Astana,51.1472,71.4222,Kazakhstan,KZ,KAZ,Nur-Sultan,primary,1078362.0,1398516045
Nouakchott,Nouakchott,18.0858,-15.9785,Mauritania,MR,MRT,Nouakchott Ouest,primary,1077169.0,1478414984
Yerevan,Yerevan,40.1814,44.5144,Armenia,AM,ARM,Yerevan,primary,1075800.0,1051074169
Rānchi,Ranchi,23.36,85.33,India,IN,IND,Jhārkhand,admin,1073440.0,1356110588
Richmond,Richmond,37.5295,-77.4756,United States,US,USA,Virginia,admin,1073223.0,1840001698
Ottawa,Ottawa,45.4247,-75.695,Canada,CA,CAN,Ontario,primary,1068821.0,1124399363
Oslo,Oslo,59.9133,10.7389,Norway,NO,NOR,Oslo,primary,1064235.0,1578324706
Sendai,Sendai,38.2682,140.8694,Japan,JP,JPN,Miyagi,admin,1061177.0,1392457903
Barquisimeto,Barquisimeto,10.0636,-69.3347,Venezuela,VE,VEN,Lara,admin,1059092.0,1862860739
Chandīgarh,Chandigarh,30.75,76.78,India,IN,IND,Chandīgarh,admin,1055450.0,1356739179
Voronezh,Voronezh,51.6717,39.2106,Russia,RU,RUS,Voronezhskaya Oblast’,admin,1051995.0,1643811064
Managua,Managua,12.1364,-86.2514,Nicaragua,NI,NIC,Managua,primary,1051236.0,1558296252
Perm,Perm,58.0,56.3167,Russia,RU,RUS,Permskiy Kray,admin,1048005.0,1643294442
Kisangani,Kisangani,0.5167,25.2,Congo (Kinshasa),CD,COD,Tshopo,admin,1040000.0,1180478201
São Luís,Sao Luis,-2.5283,-44.3044,Brazil,BR,BRA,Maranhão,admin,1037775.0,1076819308
Ashgabat,Ashgabat,37.9375,58.38,Turkmenistan,TM,TKM,Aşgabat,primary,1030063.0,1795049992
Denizli,Denizli,37.7833,29.0964,Turkey,TR,TUR,Denizli,admin,1027782.0,1792161179
Niamey,Niamey,13.515,2.1175,Niger,NE,NER,Niamey,primary,1026848.0,1562932886
Monrovia,Monrovia,6.3133,-10.8014,Liberia,LR,LBR,Montserrado,primary,1021762.0,1430477826
San Cristóbal,San Cristobal,7.7667,-72.2333,Venezuela,VE,VEN,Táchira,admin,1015623.0,1862252264
Islamabad,Islamabad,33.6931,73.0639,Pakistan,PK,PAK,Islamabad,primary,1014825.0,1586306717
Morelia,Morelia,19.7683,-101.1894,Mexico,MX,MEX,Michoacán,admin,1011704.0,1484669072
Odesa,Odesa,46.4775,30.7326,Ukraine,UA,UKR,Odeska Oblast,admin,1010537.0,1804178102
Raipur,Raipur,21.2444,81.6306,India,IN,IND,Chhattīsgarh,admin,1010087.0,1356374983
Changwon,Changwon,35.2708,128.6631,"Korea, South",KR,KOR,Gyeongnam,admin,1009998.0,1410592618
Arequipa,Arequipa,-16.4,-71.5333,Peru,PE,PER,Arequipa,admin,1008290.0,1604723954
Volgograd,Volgograd,48.7086,44.5147,Russia,RU,RUS,Volgogradskaya Oblast’,admin,1004763.0,1643577201
Quetta,Quetta,30.1833,67.0,Pakistan,PK,PAK,Balochistan,admin,1001205.0,1586556108
Oklahoma City,Oklahoma City,35.4676,-97.5136,United States,US,USA,Oklahoma,admin,998806.0,1840020428
Bordeaux,Bordeaux,44.84,-0.58,France,FR,FRA,Nouvelle-Aquitaine,admin,994920.0,1250449238
Lilongwe,Lilongwe,-13.9833,33.7833,Malawi,MW,MWI,Lilongwe,primary,989318.0,1454688499
Port-au-Prince,Port-au-Prince,18.5333,-72.3333,Haiti,HT,HTI,Ouest,primary,987310.0,1332401940
Pekanbaru,Pekanbaru,0.5092,101.4453,Indonesia,ID,IDN,Riau,admin,983356.0,1360422679
Chiba,Chiba,35.6073,140.1064,Japan,JP,JPN,Chiba,admin,975014.0,1392107144
Kirkuk,Kirkuk,35.4667,44.3167,Iraq,IQ,IRQ,Karkūk,admin,975000.0,1368344172
Hartford,Hartford,41.7661,-72.6834,United States,US,USA,Connecticut,admin,974684.0,1840004773
Dnipro,Dnipro,48.4675,35.04,Ukraine,UA,UKR,Dnipropetrovska Oblast,admin,968502.0,1804152933
Marrakech,Marrakech,31.63,-8.0089,Morocco,MA,MAR,Marrakech-Safi,admin,966987.0,1504172585
Cebu City,Cebu City,10.32,123.75,Philippines,PH,PHL,Cebu,admin,964169.0,1608136151
Asmara,Asmara,15.3228,38.925,Eritrea,ER,ERI,Ma’ĭkel,primary,963000.0,1232791236
Maceió,Maceio,-9.6658,-35.735,Brazil,BR,BRA,Alagoas,admin,957916.0,1076440479
Teresina,Teresina,-5.0949,-42.8042,Brazil,BR,BRA,Piauí,admin,953172.0,1076727667
Freetown,Freetown,8.4844,-13.2344,Sierra Leone,SL,SLE,Western Area,primary,951000.0,1694085071
Santo Domingo Este,Santo Domingo Este,18.4855,-69.8734,Dominican Republic,DO,DOM,Ozama,admin,948855.0,1214664832
Krasnodar,Krasnodar,45.0333,38.9667,Russia,RU,RUS,Krasnodarskiy Kray,admin,948827.0,1643438227
Vientiane,Vientiane,17.98,102.63,Laos,LA,LAO,Viangchan,primary,948487.0,1418732714
Tangier,Tangier,35.7767,-5.8039,Morocco,MA,MAR,Tanger-Tétouan-Al Hoceïma,admin,947952.0,1504861504
Kermānshāh,Kermanshah,34.3325,47.0933,Iran,IR,IRN,Kermānshāh,admin,946651.0,1364535690
Jerusalem,Jerusalem,31.7789,35.2256,Israel,IL,ISR,Jerusalem,primary,936425.0,1376261644
Trujillo,Trujillo,-8.112,-79.0288,Peru,PE,PER,La Libertad,admin,935147.0,1604613706
Aguascalientes,Aguascalientes,21.876,-102.296,Mexico,MX,MEX,Aguascalientes,admin,934424.0,1484666646
Riga,Riga,56.9489,24.1064,Latvia,LV,LVA,Rīga,primary,920643.0,1428586192
Cartagena,Cartagena,10.4,-75.5,Colombia,CO,COL,Bolívar,admin,914552.0,1170886102
Naples,Naples,40.8333,14.25,Italy,IT,ITA,Campania,admin,913462.0,1380646673
Santiago del Estero,Santiago del Estero,-27.7833,-64.2667,Argentina,AR,ARG,Santiago del Estero,admin,911506.0,1032492280
Padang,Padang,-0.95,100.3531,Indonesia,ID,IDN,Sumatera Barat,admin,909040.0,1360900986
Owerri,Owerri,5.485,7.035,Nigeria,NG,NGA,Imo,admin,908109.0,1566679132
Bobo-Dioulasso,Bobo-Dioulasso,11.1833,-4.2833,Burkina Faso,BF,BFA,Hauts-Bassins,admin,903887.0,1854348796
Ad Dammām,Ad Dammam,26.4333,50.1,Saudi Arabia,SA,SAU,Ash Sharqīyah,admin,903312.0,1682452296
Donetsk,Donetsk,48.0028,37.8053,Ukraine,UA,UKR,Donetska Oblast,admin,901645.0,1804963805
Bunia,Bunia,1.5667,30.25,Congo (Kinshasa),CD,COD,Ituri,admin,900666.0,1180006418
Campo Grande,Campo Grande,-20.4839,-54.615,Brazil,BR,BRA,Mato Grosso do Sul,admin,897938.0,1076660445
Bucaramanga,Bucaramanga,7.1333,-73.0,Colombia,CO,COL,Santander,admin,893040.0,1170940590
Mérida,Merida,20.97,-89.62,Mexico,MX,MEX,Yucatán,admin,892363.0,1484396779
Bangui,Bangui,4.3733,18.5628,Central African Republic,CF,CAF,Bangui,primary,889231.0,1140080881
Abeokuta,Abeokuta,7.1608,3.3483,Nigeria,NG,NGA,Ogun,admin,888924.0,1566979497
Antipolo,Antipolo,14.5842,121.1763,Philippines,PH,PHL,Rizal,admin,887399.0,1608824345
Taguig City,Taguig City,14.52,121.05,Philippines,PH,PHL,Taguig,admin,886722.0,1608766695
Tabūk,Tabuk,28.3972,36.5789,Saudi Arabia,SA,SAU,Tabūk,admin,886036.0,1682590992
As Sulaymānīyah,As Sulaymaniyah,35.5572,45.4356,Iraq,IQ,IRQ,As Sulaymānīyah,admin,878146.0,1368735317
Chihuahua,Chihuahua,28.6369,-106.0769,Mexico,MX,MEX,Chihuahua,admin,878062.0,1484335603
Ar Ramādī,Ar Ramadi,33.4258,43.2992,Iraq,IQ,IRQ,Al Anbār,admin,874543.0,1368838855
Barinas,Barinas,8.6333,-70.2,Venezuela,VE,VEN,Barinas,admin,873962.0,1862647790
Marseille,Marseille,43.2964,5.37,France,FR,FRA,Provence-Alpes-Côte d’Azur,admin,873076.0,1250774071
Eskişehir,Eskisehir,39.7767,30.5206,Turkey,TR,TUR,Eskişehir,admin,871187.0,1792933981
Ipoh,Ipoh,4.5972,101.075,Malaysia,MY,MYS,Perak,admin,866772.0,1458423505
Saltillo,Saltillo,25.4231,-100.9919,Mexico,MX,MEX,Coahuila,admin,864431.0,1484107245
Dushanbe,Dushanbe,38.5367,68.78,Tajikistan,TJ,TJK,Dushanbe,primary,863400.0,1762930616
Ikeja,Ikeja,6.6,3.35,Nigeria,NG,NGA,Lagos,admin,861300.0,1566486388
Cochabamba,Cochabamba,-17.3883,-66.1597,Bolivia,BO,BOL,Cochabamba,admin,856198.0,1068793894
Tyumen,Tyumen,57.15,65.5333,Russia,RU,RUS,Tyumenskaya Oblast’,admin,855600.0,1643040435
Hermosillo,Hermosillo,29.0989,-110.9542,Mexico,MX,MEX,Sonora,admin,855563.0,1484015319
Cheongju,Cheongju,36.6333,127.4833,"Korea, South",KR,KOR,Chungbuk,admin,852018.0,1410964361
Akure,Akure,7.25,5.195,Nigeria,NG,NGA,Ondo,admin,847903.0,1566568277
Ilorin,Ilorin,8.5,4.55,Nigeria,NG,NGA,Kwara,admin,847582.0,1566480168
Erbil,Erbil,36.1912,44.0092,Iraq,IQ,IRQ,Arbīl,admin,846000.0,1368578192
Kathmandu,Kathmandu,27.71,85.32,Nepal,NP,NPL,,primary,845767.0,1524589448
Saratov,Saratov,51.5333,46.0167,Russia,RU,RUS,Saratovskaya Oblast’,admin,845300.0,1643556540
Turin,Turin,45.0792,7.6761,Italy,IT,ITA,Piedmont,admin,841600.0,1380244627
Pietermaritzburg,Pietermaritzburg,-29.6167,30.3833,South Africa,ZA,ZAF,KwaZulu-Natal,admin,839327.0,1710690280
Bhubaneshwar,Bhubaneshwar,20.2644,85.8281,India,IN,IND,Odisha,admin,837737.0,1356140143
Denpasar,Denpasar,-8.65,115.2167,Indonesia,ID,IDN,Bali,admin,834881.0,1360848527
João Pessoa,Joao Pessoa,-7.12,-34.88,Brazil,BR,BRA,Paraíba,admin,833932.0,1076922014
Samarinda,Samarinda,-0.5,117.1378,Indonesia,ID,IDN,Kalimantan Timur,admin,831460.0,1360684979
Culiacán,Culiacan,24.8069,-107.3939,Mexico,MX,MEX,Sinaloa,admin,808416.0,1484516810
Cúcuta,Cucuta,7.8942,-72.5039,Colombia,CO,COL,Norte de Santander,admin,806378.0,1170743755
Kraków,Krakow,50.0614,19.9372,Poland,PL,POL,Małopolskie,admin,804237.0,1616172264
Pasig City,Pasig City,14.5605,121.0765,Philippines,PH,PHL,Pasig,admin,803159.0,1608278212
Thessaloníki,Thessaloniki,40.6403,22.9347,Greece,GR,GRC,Kentrikí Makedonía,admin,802572.0,1300397999
Querétaro,Queretaro,20.5875,-100.3928,Mexico,MX,MEX,Querétaro,admin,801940.0,1484604775
Libreville,Libreville,0.3903,9.4542,Gabon,GA,GAB,Estuaire,primary,797003.0,1266952885
San Pedro Sula,San Pedro Sula,15.5,-88.0333,Honduras,HN,HND,Cortés,admin,793835.0,1340568412
Niigata,Niigata,37.9161,139.0364,Japan,JP,JPN,Niigata,admin,790646.0,1392913753
Pointe-Noire,Pointe-Noire,-4.7975,11.8503,Congo (Brazzaville),CG,COG,Pointe-Noire,admin,787799.0,1178411563
Lubango,Lubango,-14.9167,13.5,Angola,AO,AGO,Huíla,admin,776249.0,1024669127
Homs,Homs,34.7308,36.7094,Syria,SY,SYR,Ḩimş,admin,775404.0,1760013934
San Luis Potosí,San Luis Potosi,22.1511,-100.9761,Mexico,MX,MEX,San Luis Potosí,admin,772828.0,1484583620
Khŭjand,Khujand,40.2833,69.6333,Tajikistan,TJ,TJK,Sughd,admin,770000.0,1762372787
Hamhŭng,Hamhung,39.9167,127.5333,"Korea, North",KP,PRK,Hamnam,admin,768551.0,1408482040
Erzurum,Erzurum,39.9086,41.2769,Turkey,TR,TUR,Erzurum,admin,767848.0,1792511957
Zagreb,Zagreb,45.8131,15.9775,Croatia,HR,HRV,"Zagreb, Grad",primary,767131.0,1191233290
Kaduna,Kaduna,10.5167,7.4333,Nigeria,NG,NGA,Kaduna,admin,760084.0,1566368729
Winnipeg,Winnipeg,49.8844,-97.1464,Canada,CA,CAN,Manitoba,admin,758515.0,1124224963
Trabzon,Trabzon,41.005,39.7225,Turkey,TR,TUR,Trabzon,admin,758237.0,1792019202
Natal,Natal,-5.7833,-35.2,Brazil,BR,BRA,Rio Grande do Norte,admin,751300.0,1076697777
Gaalkacyo,Gaalkacyo,6.7697,47.4308,Somalia,SO,SOM,Mudug,admin,745000.0,1706067930
Thiruvananthapuram,Thiruvananthapuram,8.5241,76.9366,India,IN,IND,Kerala,admin,743691.0,1356024354
Nampula,Nampula,-15.1167,39.2667,Mozambique,MZ,MOZ,Nampula,admin,743000.0,1508958445
Pretoria,Pretoria,-25.7461,28.1881,South Africa,ZA,ZAF,Gauteng,primary,741651.0,1710176249
Cabinda,Cabinda,-5.56,12.19,Angola,AO,AGO,Cabinda,admin,739182.0,1024474012
Kumamoto,Kumamoto,32.8031,130.7078,Japan,JP,JPN,Kumamoto,admin,738385.0,1392106283
Kermān,Kerman,30.2911,57.0678,Iran,IR,IRN,Kermān,admin,738374.0,1364554896
Orūmīyeh,Orumiyeh,37.5439,45.0647,Iran,IR,IRN,Āz̄arbāyjān-e Gharbī,admin,736224.0,1364158221
Quebec City,Quebec City,46.8139,-71.2081,Canada,CA,CAN,Quebec,admin,733156.0,1124823933
Tshikapa,Tshikapa,-6.4167,20.8,Congo (Kinshasa),CD,COD,Kasaï,admin,732000.0,1180581239
Osogbo,Osogbo,7.7667,4.5667,Nigeria,NG,NGA,Osun,admin,731000.0,1566395088
Cagayan de Oro,Cagayan de Oro,8.48,124.65,Philippines,PH,PHL,Cagayan de Oro,admin,728402.0,1608831546
An Najaf,An Najaf,32.0,44.33,Iraq,IQ,IRQ,An Najaf,admin,724700.0,1368003357
Okayama,Okayama,34.65,133.9167,Japan,JP,JPN,Okayama,admin,720043.0,1392954750
Concepción,Concepcion,-36.8282,-73.0514,Chile,CL,CHL,Biobío,admin,719944.0,1152838958
Lviv,Lviv,49.8425,24.0322,Ukraine,UA,UKR,Lvivska Oblast,admin,717273.0,1804939658
Vilnius,Vilnius,54.6872,25.28,Lithuania,LT,LTU,Vilniaus Miestas,primary,716856.0,1440887149
Marka,Marka,1.7133,44.7656,Somalia,SO,SOM,Shabeellaha Hoose,admin,716361.0,1706165964
Enugu,Enugu,6.4528,7.5111,Nigeria,NG,NGA,Enugu,admin,715774.0,1566212729
Valenzuela,Valenzuela,14.7,120.98,Philippines,PH,PHL,Valenzuela,admin,714978.0,1608492120
Zaporizhzhia,Zaporizhzhia,47.85,35.1175,Ukraine,UA,UKR,Zaporizka Oblast,admin,710052.0,1804644752
George Town,George Town,5.4144,100.3292,Malaysia,MY,MYS,Pulau Pinang,admin,708127.0,1458236750
Chisinau,Chisinau,47.0228,28.8353,Moldova,MD,MDA,Chişinău,primary,702300.0,1498011437
Boosaaso,Boosaaso,11.2886,49.1819,Somalia,SO,SOM,Bari,admin,700906.0,1706054548
Port Moresby,Port Moresby,-9.4789,147.1494,Papua New Guinea,PG,PNG,National Capital,primary,700000.0,1598685395
Latakia,Latakia,35.5167,35.7833,Syria,SY,SYR,Al Lādhiqīyah,admin,700000.0,1760555544
Cotonou,Cotonou,6.3667,2.4333,Benin,BJ,BEN,Littoral,primary,679012.0,1204955174
Manama,Manama,26.225,50.5775,Bahrain,BH,BHR,Al ‘Āşimah,primary,635000.0,1048989486
Tallinn,Tallinn,59.4372,24.7453,Estonia,EE,EST,Tallinn,primary,614561.0,1233260021
Djibouti,Djibouti,11.5883,43.145,Djibouti,DJ,DJI,Djibouti,primary,603900.0,1262028958
Tunis,Tunis,36.8064,10.1817,Tunisia,TN,TUN,Tunis,primary,602560.0,1788742103
Gaza,Gaza,31.5069,34.456,Gaza Strip,XG,XGZ,,primary,590481.0,1916116052
Kingston,Kingston,17.9714,-76.7931,Jamaica,JM,JAM,Kingston,primary,580000.0,1388709177
Rabat,Rabat,34.0209,-6.8416,Morocco,MA,MAR,Rabat-Salé-Kénitra,primary,572717.0,1504023252
Lisbon,Lisbon,38.7253,-9.15,Portugal,PT,PRT,Lisboa,primary,548703.0,1620619017
The Hague,The Hague,52.08,4.31,Netherlands,NL,NLD,Zuid-Holland,primary,548320.0,1528799905
Skopje,Skopje,41.9961,21.4317,North Macedonia,MK,MKD,Skopje,primary,526502.0,1807600615
Bissau,Bissau,11.85,-15.5667,Guinea-Bissau,GW,GNB,Bissau,primary,492004.0,1624168850
Valletta,Valletta,35.8983,14.5125,Malta,MT,MLT,Valletta,primary,480134.0,1470574399
Asunción,Asuncion,-25.3,-57.6333,Paraguay,PY,PRY,Asunción,primary,477346.0,1600057911
Bratislava,Bratislava,48.1439,17.1097,Slovakia,SK,SVK,Bratislava,primary,475503.0,1703195001
Juba,Juba,4.85,31.6,South Sudan,SS,SSD,Central Equatoria,primary,459342.0,1728444337
Windhoek,Windhoek,-22.57,17.0836,Namibia,,NAM,Khomas,primary,431000.0,1516802003
Sarajevo,Sarajevo,43.8564,18.4131,Bosnia and Herzegovina,BA,BIH,"Bosnia and Herzegovina, Federation of",primary,419957.0,1070966777
Tirana,Tirana,41.3289,19.8178,Albania,AL,ALB,Tiranë,primary,418495.0,1008162156
Banjul,Banjul,13.4531,-16.5775,"Gambia, The",GM,GMB,Banjul,primary,413397.0,1270723713
Canberra,Canberra,-35.2931,149.1269,Australia,AU,AUS,Australian Capital Territory,primary,381488.0,1036142029
Maseru,Maseru,-29.31,27.48,Lesotho,LS,LSO,Maseru,primary,343541.0,1426977668
Nicosia,Nicosia,35.1725,33.365,Cyprus,CY,CYP,Lefkosía,primary,330000.0,1196944155
San Salvador,San Salvador,13.6989,-89.1914,El Salvador,SV,SLV,San Salvador,primary,316090.0,1222647454
Saint-Denis,Saint-Denis,-20.8789,55.4481,Reunion,RE,REU,,primary,315080.0,1638024662
Sucre,Sucre,-19.0475,-65.26,Bolivia,BO,BOL,Chuquisaca,primary,300000.0,1068823873
Malabo,Malabo,3.7456,8.7744,Equatorial Guinea,GQ,GNQ,Bioko Norte,primary,297000.0,1226861333
Ljubljana,Ljubljana,46.0514,14.5061,Slovenia,SI,SVN,Ljubljana,primary,284293.0,1705917455
Nassau,Nassau,25.0781,-77.3386,"Bahamas, The",BS,BHS,,primary,274400.0,1044318561
Bloemfontein,Bloemfontein,-29.1167,26.2167,South Africa,ZA,ZAF,Free State,primary,256185.0,1710495933
Fort-de-France,Fort-de-France,14.6,-61.0667,Martinique,MQ,MTQ,,primary,253995.0,1474969110
New Delhi,New Delhi,28.6139,77.2089,India,IN,IND,Delhi,primary,249998.0,1356215164
Gaborone,Gaborone,-24.6581,25.9122,Botswana,BW,BWA,Gaborone,primary,235884.0,1072756768
Paramaribo,Paramaribo,5.8522,-55.2039,Suriname,SR,SUR,Paramaribo,primary,223757.0,1740518660
Dili,Dili,-8.5536,125.5783,Timor-Leste,TL,TLS,Díli,primary,222323.0,1626308942
Wellington,Wellington,-41.2889,174.7772,New Zealand,NZ,NZL,Wellington,primary,216200.0,1554772152
Georgetown,Georgetown,6.8058,-58.1508,Guyana,GY,GUY,Demerara-Mahaica,primary,200500.0,1328160906
Pristina,Pristina,42.6633,21.1622,Kosovo,XK,XKS,Prishtinë,primary,198897.0,1901760068
Suva,Suva,-18.1416,178.4419,Fiji,FJ,FJI,Rewa,primary,185913.0,1242615095
Nouméa,Noumea,-22.2758,166.458,New Caledonia,NC,NCL,Province Sud,primary,182341.0,1540958092
Podgorica,Podgorica,42.4414,19.2628,Montenegro,ME,MNE,Podgorica,primary,173024.0,1499454516
Willemstad,Willemstad,12.108,-68.935,Curaçao,CW,CUW,,primary,150000.0,1531000000
Port Louis,Port Louis,-20.1644,57.5042,Mauritius,MU,MUS,Port Louis,primary,149194.0,1480131261
Reykjavík,Reykjavik,64.1467,-21.94,Iceland,IS,ISL,Reykjavík,primary,139875.0,1352327190
Gitega,Gitega,-3.4283,29.925,Burundi,BI,BDI,Gitega,primary,135467.0,1108778000
Bern,Bern,46.9481,7.4475,Switzerland,CH,CHE,Bern,primary,134506.0,1756374318
Porto-Novo,Porto-Novo,6.4972,2.605,Benin,BJ,BEN,Ouémé,primary,133168.0,1204172060
Male,Male,4.1753,73.5089,Maldives,MV,MDV,Maale,primary,133019.0,1462441685
Luxembourg,Luxembourg,49.6117,6.1319,Luxembourg,LU,LUX,Luxembourg,primary,132780.0,1442262731
Papeete,Papeete,-17.5334,-149.5667,French Polynesia,PF,PYF,Îles du Vent,primary,131695.0,1258907380
Sri Jayewardenepura Kotte,Sri Jayewardenepura Kotte,6.9108,79.8878,Sri Lanka,LK,LKA,Western,primary,115826.0,1144239330
Thimphu,Thimphu,27.4722,89.6361,Bhutan,BT,BTN,Thimphu,primary,114551.0,1064010361
Bridgetown,Bridgetown,13.0975,-59.6167,Barbados,BB,BRB,Saint Michael,primary,110000.0,1052274244
Honiara,Honiara,-9.4319,159.9556,Solomon Islands,SB,SLB,Honiara,primary,84520.0,1090737486
Port of Spain,Port of Spain,10.6667,-61.5167,Trinidad and Tobago,TT,TTO,Port of Spain,primary,81142.0,1780670676
Mamoudzou,Mamoudzou,-12.7806,45.2278,Mayotte,YT,MYT,,primary,71437.0,1175099654
Castries,Castries,14.0167,-60.9833,Saint Lucia,LC,LCA,Castries,primary,70000.0,1662922505
Putrajaya,Putrajaya,2.93,101.69,Malaysia,MY,MYS,Putrajaya,primary,67964.0,1458000206
São Tomé,Sao Tome,0.3361,6.7306,Sao Tome and Principe,ST,STP,Água Grande,primary,65468.0,1678301324
Praia,Praia,14.918,-23.509,Cabo Verde,CV,CPV,Praia,primary,61644.0,1132398770
Cayenne,Cayenne,4.933,-52.33,French Guiana,GF,GUF,,primary,61550.0,1254304969
Mbabane,Mbabane,-26.3167,31.1333,Eswatini,SZ,SWZ,Hhohho,primary,60691.0,1748811945
Bandar Seri Begawan,Bandar Seri Begawan,4.8903,114.9422,Brunei,BN,BRN,Brunei dan Muara,primary,50000.0,1096465895
Port-Vila,Port-Vila,-17.7333,168.3167,Vanuatu,VU,VUT,Shefa,primary,49034.0,1548805075
Dodoma,Dodoma,-6.1731,35.7419,Tanzania,TZ,TZA,Dodoma,primary,45807.0,1834288497
Apia,Apia,-13.8333,-171.75,Samoa,WS,WSM,Tuamasaga,primary,37708.0,1882489296
Yamoussoukro,Yamoussoukro,6.8161,-5.2742,Côte d’Ivoire,CI,CIV,Yamoussoukro,primary,37253.0,1384683557
Monaco,Monaco,43.7333,7.4167,Monaco,MC,MCO,,primary,36371.0,1492854256
Oranjestad,Oranjestad,12.5186,-70.0358,Aruba,AW,ABW,,primary,34980.0,1533513057
Gibraltar,Gibraltar,36.14,-5.35,Gibraltar,GI,GIB,,primary,34003.0,1292385245
Saint Helier,Saint Helier,49.1858,-2.11,Jersey,JE,JEY,,primary,33522.0,1832490253
Lomé,Lome,6.1319,1.2228,Togo,TG,TGO,Maritime,primary,33000.0,1768409132
Majuro,Majuro,7.0833,171.3833,Marshall Islands,MH,MHL,Majuro,primary,30000.0,1584000000
Tarawa,Tarawa,1.3382,173.0176,Kiribati,KI,KIR,,primary,28802.0,1296152641
Douglas,Douglas,54.15,-4.4775,Isle of Man,IM,IMN,,primary,27938.0,1833688345
George Town,George Town,19.2866,-81.3744,Cayman Islands,KY,CYM,,primary,27704.0,1136159124
Victoria,Victoria,-4.6231,55.4525,Seychelles,SC,SYC,Mont Buxton,primary,24701.0,1690193579
Nuku‘alofa,Nuku`alofa,-21.1333,-175.2,Tonga,TO,TON,Tongatapu,primary,23221.0,1776737461
Andorra la Vella,Andorra la Vella,42.5,1.5,Andorra,AD,AND,Andorra la Vella,primary,22615.0,1020828846
Saint John’s,Saint John's,17.1167,-61.85,Antigua and Barbuda,AG,ATG,Saint John,primary,22219.0,1028912067
Saint Peter Port,Saint Peter Port,49.4555,-2.5368,Guernsey,GG,GGY,,primary,18958.0,1831991870
Nuuk,Nuuk,64.1814,-51.6942,Greenland,GL,GRL,Sermersooq,primary,18326.0,1304028354
Moroni,Moroni,-11.699,43.256,Comoros,KM,COM,Grande Comore,primary,17267.0,1174793581
Belmopan,Belmopan,17.2514,-88.7669,Belize,BZ,BLZ,Cayo,primary,17222.0,1084586375
Roseau,Roseau,15.3014,-61.3883,Dominica,DM,DMA,Saint George,primary,14725.0,1212060440
Kingstown,Kingstown,13.1578,-61.225,Saint Vincent and the Grenadines,VC,VCT,Saint George,primary,13857.0,1670376659
Tórshavn,Torshavn,62.0,-6.7833,Faroe Islands,FO,FRO,Tórshavn,primary,13326.0,1234904517
Basseterre,Basseterre,17.3,-62.7333,Saint Kitts and Nevis,KN,KNA,Saint George Basseterre,primary,13220.0,1659198919
Road Town,Road Town,18.4167,-64.6167,"Virgin Islands, British",VG,VGB,,primary,12603.0,1092732412
Pago Pago,Pago Pago,-14.274,-170.7046,American Samoa,AS,ASM,,primary,12576.0,1016976740
Palikir,Palikir,6.9172,158.1589,"Micronesia, Federated States of",FM,FSM,Pohnpei,primary,6227.0,1583008885
Funafuti,Funafuti,-8.5167,179.2,Tuvalu,TV,TUV,Funafuti,primary,6025.0,1798251391
Lobamba,Lobamba,-26.4465,31.2064,Eswatini,SZ,SWZ,Hhohho,primary,5800.0,1748963140
Marigot,Marigot,18.0706,-63.0847,Saint Martin,MF,MAF,,primary,5700.0,1663133172
Vaduz,Vaduz,47.141,9.521,Liechtenstein,LI,LIE,Vaduz,primary,5696.0,1438317747
Saint-Pierre,Saint-Pierre,46.7778,-56.1778,Saint Pierre and Miquelon,PM,SPM,,primary,5394.0,1666340272
Saint George’s,Saint George's,12.05,-61.75,Grenada,GD,GRD,Saint George,primary,4315.0,1308891766
San Marino,San Marino,43.9346,12.4473,San Marino,SM,SMR,San Marino Città,primary,4040.0,1674741947
Avarua,Avarua,-21.207,-159.771,Cook Islands,CK,COK,,primary,4009.0,1184217570
Grand Turk,Grand Turk,21.459,-71.139,Turks and Caicos Islands,TC,TCA,,primary,3700.0,1796965313
The Valley,The Valley,18.2208,-63.0517,Anguilla,AI,AIA,,primary,3269.0,1660698387
Tifariti,Tifariti,26.158,-10.567,Morocco,MA,MAR,Laâyoune-Sakia El Hamra,primary,3000.0,1504999990
Capitol Hill,Capitol Hill,15.2137,145.7546,Northern Mariana Islands,MP,MNP,,primary,2500.0,1580556972
Gustavia,Gustavia,17.8979,-62.8506,Saint Barthelemy,BL,BLM,,primary,2300.0,1652681565
Stanley,Stanley,-51.7,-57.85,Falkland Islands (Islas Malvinas),FK,FLK,,primary,2213.0,1238780509
Philipsburg,Philipsburg,18.0237,-63.0458,Sint Maarten,SX,SXM,,primary,1894.0,1534859858
Longyearbyen,Longyearbyen,78.22,15.65,Svalbard,XR,XSV,,primary,1753.0,1930654114
Flying Fish Cove,Flying Fish Cove,-10.4261,105.6728,Christmas Island,CX,CXR,,primary,1599.0,1162889600
Hagåtña,Hagta,13.4745,144.7504,Guam,GU,GUM,,primary,1051.0,1316937540
Mata-Utu,Mata-Utu,-13.2833,-176.1833,Wallis and Futuna,WF,WLF,Uvea,primary,1029.0,1876784844
Hamilton,Hamilton,32.293,-64.782,Bermuda,BM,BMU,Hamilton,primary,854.0,1060000000
Vatican City,Vatican City,41.904,12.453,Vatican City,VA,VAT,,primary,825.0,1336000000
Yaren,Yaren,-0.5477,166.9209,Nauru,NR,NRU,Yaren,primary,747.0,1520790128
Jamestown,Jamestown,-15.9251,-5.7179,"Saint Helena, Ascension, and Tristan da Cunha",SH,SHN,Saint Helena,primary,714.0,1654761576
Alofi,Alofi,-19.056,-169.921,Niue,NU,NIU,,primary,597.0,1570882835
Brades,Brades,16.7928,-62.2106,Montserrat,MS,MSR,Saint Peter,primary,391.0,1500971198
Kingston,Kingston,-29.0606,167.9619,Norfolk Island,NF,NFK,,primary,341.0,1574121434
Basse-Terre,Basse-Terre,16.0104,-61.7055,Guadeloupe,GP,GLP,,primary,307.0,1312938008
Ngerulmud,Ngerulmud,7.5006,134.6242,Palau,PW,PLW,Melekeok,primary,271.0,1585525081
Adamstown,Adamstown,-25.0667,-130.1,Pitcairn Islands,PN,PCN,,primary,47.0,1612000000
